timestamp,lat,lon,alt,roll,pitch,yaw,vn,ve,vf,vl,vu,ax,ay,az,af,al,au,wx,wy,wz,wf,wl,wu,pos_accuracy,vel_accuracy,navstat,numsats,posmode,velmode,orimode
2011-09-30 12:42:41.421119021,48.985122186805,8.3939808937919,116.35473632812,0.012821,0.013427000000000001,-0.4270436732051,-1.5432671996526,3.4686508511570002,3.7963654184627003,-0.028490247853476,-0.01799757201893,0.49581810122754,0.10910632523819999,9.7926979077565,0.63120118655055,-0.025705717789722998,9.7855347393974,-0.016570289591953,-0.0073461320468343,-0.016299726482815,-0.016795717074656,-0.0071202966982103,-0.016167156336341002,0.021633307652783998,0.013453624047073998,4,8,6,6,6
2011-09-30 12:42:43.301064490,48.985088734737,8.3940897292575,116.3196105957,0.006019,0.007377,-0.4506006732051,-2.2276069989917002,4.6767533179189,5.1801002976521,-0.028880005356243996,0.0072921356193215,0.42085726861111,-0.021391077014691,9.8660793284292,0.49489138621422,-0.08568800165943902,9.8623085965963,-0.0087248245331985,-0.002352750041276,-0.0091102484630001,-0.0087929880915209,-0.0022934267115479,-0.0090601056035495,0.024698178070457,0.015620499351812998,4,8,6,6,6
2011-09-30 12:42:43.311183442,48.985088529862004,8.394090373966,116.31884765625,0.005959000000000001,0.007398999999999999,-0.4506206732051,-2.2302909491429,4.680930320231,5.185026613818,-0.028691067887306,0.0075933152764233,0.41543367831944006,0.0046325845375125,9.8510524291648,0.48920049745039,-0.058749404538957,9.8474901962269,-0.0083251008532187,-0.0017013375350846,-0.0081472111935501,-0.0083859872516075,-0.0016485135623502,-0.0080960672224447,0.024698178070457,0.015620499351812998,4,8,6,6,6
2011-09-30 12:42:43.321045164,48.985088327398,8.3940910181738,116.31893920898001,0.005828,0.007279000000000001,-0.4507156732051,-2.2330373067715,4.6852907721964,5.1901452538377,-0.028539036382436003,0.0078043179849598,0.43485362657153004,0.0059626968568857,9.8403045647901,0.50823070569448,-0.05646113133209801,9.8366297517137,-0.0090338357252359,-0.0032416369048219,-0.0083351295145176,-0.0090958765988487,-0.0031884886019994,-0.0082878111614746,0.024698178070457,0.015620499351812998,4,8,6,6,6
2011-09-30 12:42:43.331030472,48.985088125456,8.3940916605153,116.31903839111,0.0057020000000000005,0.007271,-0.4507786732051,-2.2357167107557996,4.689882156366901,5.1954427354082,-0.028534158167067003,0.0078486702872158,0.4542855825858,0.019918292328353,9.8223938800716,0.52725631144997,-0.041456443755815,9.8186771564223,-0.0095552603664505,-0.0028768913690986,-0.0080223600873399,-0.0096147669352159,-0.0028263677405189,-0.0079691483254704,0.024698178070457,0.015620499351812998,4,8,6,6,6
2011-09-30 12:42:43.341051069,48.985087919909,8.3940923074131,116.31829071045,0.005536999999999999,0.007215999999999999,-0.4508826732051,-2.2384292041424,4.6944148329119,5.2007017410505005,-0.02849453044243,0.0076763697441334,0.45076274519792997,0.0140955484791,9.802909798060801,0.52327697920018,-0.04612299847552599,9.799208454150401,-0.010587971311482999,-0.0033048576637338,-0.0084660060742389,-0.010650406499613001,-0.0032527800116384,-0.0084076723519154,0.024698178070457,0.015620499351812998,4,8,6,6,6
2011-09-30 12:42:43.351056485,48.985087716420004,8.3940929533161,116.31838226318001,0.005452,0.007109000000000001,-0.4509636732051,-2.241424823521,4.6988376079751,5.2059852902962,-0.028151803331811,0.0077249142825134,0.45388833341824003,-0.017178783792765,9.823353328351699,0.52612093375746,-0.076492352817078,9.819485494218698,-0.01026577561476,-0.0044126290141738,-0.0083916051631031,-0.010327374293984,-0.0043618213447807,-0.008341715622618,0.024698178070457,0.015620499351812998,4,8,6,6,6
2011-09-30 12:42:43.361009505,48.98508751407601,8.3940935980291,116.31848144531,0.005442,0.006997,-0.4510076732051,-2.2442860999929,4.7033019667788,5.2112479391829005,-0.027918829995874,0.0079911771401364,0.4521050834055,-0.0029769662238503,9.845110329098999,0.52396370731939,-0.06153083678907299,9.8413632910954,-0.0088774092725464,-0.0054277346620477,-0.0077763643886376,-0.0089343307628442,-0.0053810214009273,-0.007741998927268,0.024698178070457,0.015620499351812998,4,8,6,6,6
2011-09-30 12:42:43.371002365,48.985087307944,8.394094246600599,116.31781005859,0.005361,0.007004000000000001,-0.4510866732051,-2.2468981849938996,4.707696671762,5.2163393273111,-0.027882480281097,0.008322500569116001,0.43356432089468,0.014584578709727,9.8529837797341,0.50504176935946,-0.043145574130697,9.8494876799242,-0.0087532978816645,-0.0045385744627405,-0.007881909730342,-0.008810557602008,-0.0044920501092119,-0.0078437902862621,0.024698178070457,0.015620499351812998,4,8,6,6,6
2011-09-30 12:42:43.381040589,48.985087104152,8.3940948945815,116.31789398193001,0.005302,0.006942,-0.4511896732051,-2.2494784572449,4.7121971709977,5.2215119942555,-0.027942214650416002,0.0084691254837486,0.44387467276048,0.022281891903267997,9.833876212774,0.51475609589683,-0.034523610391495006,9.830378239972301,-0.0083163031994148,-0.0047892882933295,-0.0082281232707907,-0.0083755977514127,-0.0047416254310368,-0.0081945209575021,0.024698178070457,0.015620499351812998,4,8,6,6,6
2011-09-30 12:42:43.391202051,48.985086900526,8.3940955412531,116.31798553466999,0.0052179999999999995,0.006901999999999999,-0.4512116732051,-2.2520916886581,4.717132595348,5.2270907218113,-0.028116372882503998,0.0085037566611863,0.48484347184640003,0.035799608117778,9.8212197808579,0.55518416680885,-0.020116197381753003,9.8175374310957,-0.0083273577195026,-0.004670895049330001,-0.0073209047801721,-0.0083800066267249,-0.0046286671698856,-0.0072867751867614,0.024698178070457,0.015620499351812998,4,8,6,6,6
2011-09-30 12:42:43.401077443,48.985086691881,8.3940961948242,116.31737518311,0.005138,0.006933,-0.4513246732051,-2.2548979353594,4.7221077060458,5.2327891929959005,-0.028167321554154,0.0082181931620083,0.49533695106944003,0.019344666900111,9.7901968137292,0.5651224300940999,-0.035593406936135004,9.7863792087145,-0.0082827540615772,-0.0035712607919305,-0.0080782690631463,-0.0083403263805306,-0.0035258388439466,-0.008038789088858,0.024698178070457,0.015620499351812998,4,8,6,6,6
2011-09-30 12:42:43.411168454,48.985086487097995,8.394096845050699,116.31741333008002,0.005079,0.006827,-0.4514216732051,-2.2577782450555,4.727011550139,5.2384558009181,-0.028136285592811002,0.0077204641877071,0.4942064084090301,0.0091829668650945,9.7690772916698,0.56340337256286,-0.044865666039207,9.7652435285218,-0.0079163409523406,-0.004630071673141,-0.0083080287036743,-0.0079751532139379,-0.004584121104323,-0.0082765363772404,0.024698178070457,0.015620499351812998,4,8,6,6,6
2011-09-30 12:42:43.421266232,48.98508628301,8.3940974935937,116.317527771,0.004966,0.006687,-0.4515906732051,-2.2608565082972003,4.731839817618099,5.244140465554401,-0.027964690978587,0.007477394559551,0.49714544714767,-0.01197947816467,9.793620697919401,0.56592328418541,-0.06531940999260501,9.789696704194899,-0.0084028898094895,-0.0060445609221698,-0.0095788243981232,-0.0084697436848548,-0.0059929775629139,-0.0095512476727279,0.024698178070457,0.015620499351812998,4,8,6,6,6
2011-09-30 12:42:43.431252331,48.985086073591006,8.3940981486327,116.31694030761999,0.004898,0.00673,-0.4516296732051,-2.2639830320526,4.736408844975401,5.2496132302381,-0.027593777385104,0.0071657853756184,0.47352863007552004,-0.028047556439969,9.7879175932314,0.54183613445161,-0.08055369486160001,9.7841010816084,-0.0081699563380661,-0.0045408767838443,-0.0088815007384047,-0.0082317159217142,-0.0044934160330806,-0.0088481958537113,0.024698178070457,0.015620499351812998,4,8,6,6,6
2011-09-30 12:42:43.441233744,48.98508586804,8.394098800822999,116.31700134277,0.0048909999999999995,0.006626999999999999,-0.4517516732051,-2.2669555772447003,4.741147518229099,5.2551713482532,-0.027464979394122003,0.0069459175692756,0.48408433556419,-0.0080604229739738,9.7959399542467,0.55192708932039,-0.059910943699090995,9.792182365736199,-0.0070359628873562,-0.0054107452662677,-0.009364275627644001,-0.0071005345688144,-0.0053615079471298,-0.0093428842905371,0.024698178070457,0.015620499351812998,4,8,6,6,6
2011-09-30 12:42:43.451118740,48.985085663046,8.3940994518375,116.31704711914,0.004769,0.0065260000000000006,-0.4518416732051,-2.269662240658,4.7462853904947,5.2609725820004005,-0.027749586751186,0.0067590299338843,0.50924168522956,0.032883640472122,9.7983789611097,0.57651216579689,-0.018208884660588003,9.7946883815196,-0.0078030684542527,-0.0061051334763275,-0.0093066342834974,-0.0078667528043065,-0.0060568408106919,-0.0092836960295474,0.024698178070457,0.015620499351812998,4,8,6,6,6
2011-09-30 12:42:43.461206338,48.985085445772,8.3941001047284,116.31734466553002,0.004613,0.006615,-0.4519336732051,-2.2723079045593,4.7515975819205,5.2669040117560995,-0.028166881633668997,0.0063751754438016,0.52156543244513,0.05084109440130401,9.7737821169433,0.58830366048615,0.0007457050556289599,9.7701169061318,-0.0091421081861148,-0.0038993634548784,-0.0091571391409728,-0.0092043910639444,-0.0038525783304082,-0.0091150502504671,0.024698178070457,0.015620499351812998,4,8,6,6,6
2011-09-30 12:42:43.471065066,48.985085239114,8.3941007594169,116.31739807129,0.004475,0.006498,-0.4521026732051,-2.2753817188754,4.7568929446324,5.273006983308401,-0.028254586778973002,0.0061388991272314,0.53909061757836,0.0094499302411083,9.7902997994018,0.60544878098062,-0.039765358352126,9.7863648866955,-0.0098332919581976,-0.0050709589366466,-0.010305068269827,-0.009902624364584998,-0.0050198903185317,-0.010263672347074,0.024698178070457,0.015620499351812998,4,8,6,6,6
2011-09-30 12:42:43.481085672,48.985085033662,8.3941014122417,116.31748962402,0.0044210000000000005,0.006448000000000001,-0.4522916732051,-2.2783094610441004,4.7622640029375995,5.2791138633038,-0.028576494454799,0.0062230642581467,0.54120702494161,0.024427440704942002,9.8208998294915,0.60727653169373,-0.024033413276116,9.8170467680182,-0.009142798164468,-0.0050693150961496,-0.011586808029353001,-0.0092199674532809,-0.0050133990165655,-0.011549832122052,0.024698178070457,0.015620499351812998,4,8,6,6,6
2011-09-30 12:42:43.491056053,48.985084815943004,8.3941020673231,116.3177947998,0.004256,0.006532,-0.4524286732051,-2.2810830418875,4.767564402496901,5.2850897173849996,-0.029024293364032994,0.0060846046194247,0.52629597120037,0.039543324599201006,9.7954748550678,0.59191044908488,-0.0078100065296096,9.7918028100844,-0.010405378439798,-0.0030924178317272,-0.01179128682495,-0.010483570529283,-0.0030366329265806,-0.011737415807606,0.024698178070457,0.015620499351812998,4,8,6,6,6
2011-09-30 12:42:43.501073883,48.98508460891,8.3941027238959,116.31784057616998,0.004097,0.0065450000000000005,-0.4525616732051,-2.2838605856044,4.772684742122401,5.290905298251,-0.029402238457562003,0.0059519139265109995,0.51183657552031,0.028106825909321002,9.7970536268076,0.57723424391157,-0.018169719789487,9.7934439348962,-0.011225071673828,-0.0024335551569681,-0.011999593801207,-0.011304417998478996,-0.0023780398778282,-0.011937365343301,0.024698178070457,0.015620499351812998,4,8,6,6,6
2011-09-30 12:42:43.511053889,48.98508440226,8.3941033794067,116.31795501709,0.003974,0.00639,-0.4527726732051,-2.2865964977637003,4.777892030804,5.2967804217039,-0.029928806479432,0.0061841268375343,0.5182510891922599,0.033985802022923,9.833960582786501,0.58346383509574,-0.011336017686856,9.8303582295263,-0.011356310922754,-0.0044055218834229,-0.013348154731026001,-0.011443896207813,-0.0043458033363697,-0.013292860653886001,0.024698178070457,0.015620499351812998,4,8,6,6,6
2011-09-30 12:42:43.520999076,48.985084184286,8.394104036678598,116.31826019286999,0.0038689999999999996,0.006515000000000001,-0.4529766732051,-2.2891920230991,4.7832332261834,5.3027141374919005,-0.030697163567987004,0.0062315078119042,0.52317842581342,0.054687931719484,9.811616495368499,0.58807268424939,0.010543516137060997,9.808074050243501,-0.011367364284341002,-0.0019101936009095,-0.014296431521372,-0.011460951377299999,-0.0018480311103401,-0.014231079455303998,0.024698178070457,0.015620499351812998,4,8,6,6,6
2011-09-30 12:42:43.531038657,48.985083977002,8.3941046960092,116.31831359863001,0.0037229999999999997,0.006474,-0.4532486732051,-2.2915032196342997,4.788703242255901,5.3086384117465,-0.031880827729895,0.0061517816401186,0.52396166194141,0.084224741961562,9.8006790210632,0.5885781502113101,0.041263162713613,9.797254583098699,-0.01183875964169,-0.0022416645607729996,-0.016228966793167,-0.011944672085426999,-0.0021736435248933,-0.016161514041744,0.024698178070457,0.015620499351812998,4,8,6,6,6
2011-09-30 12:42:43.541074083,48.985083769765,8.394105353397899,116.31844329834,0.0035229999999999997,0.006351,-0.4533866732051,-2.2937977366891,4.7944177559175,5.314775184429299,-0.033167349592264,0.0065190143941008,0.5456724126502,0.09329603066732699,9.8453671679037,0.61021519732587,0.051441959479823,9.8418558780685,-0.013052445695436002,-0.0037474148766571,-0.015840621774191998,-0.013155446173384,-0.0036823775220634,-0.015770736010823,0.024698178070457,0.015620499351812998,4,8,6,6,6
2011-09-30 12:42:43.551037909,48.985083551586,8.3941060132084,116.3187713623,0.003361,0.006441,-0.4537346732051,-2.2962580761858,4.800025092529901,5.3208869389493,-0.03441048700066,0.0070111622349857,0.5409965507526701,0.076076626067228,9.8564720927182,0.60543975497363,0.035499827678375,9.8529403089,-0.013631078841121,-0.0018833026451585,-0.018581028508063,-0.013751503409116,-0.0018108317235282,-0.018500777172066,0.024698178070457,0.015620499351812998,4,8,6,6,6
2011-09-30 12:42:43.561032777,48.985083343518,8.3941066745638,116.31884002686,0.003182,0.006453,-0.4540426732051,-2.2986343647578997,4.8054663286504,5.3268115884869,-0.03575451082874,0.0072044878997378,0.52401706813977,0.073890132157144,9.8269562788105,0.58814263948182,0.03478923979496,9.8235320264382,-0.014245917014953001,-0.0014268072483847,-0.020416874231853,-0.014378050813687001,-0.0013504974847081,-0.020330825649286,0.024698178070457,0.015620499351812998,4,8,6,6,6
2011-09-30 12:42:43.571046470,48.985083135895,8.394107334707499,116.31895446777,0.0030210000000000002,0.006333,-0.4543516732051,-2.3013442100442,4.810826379352901,5.3328087502078,-0.036847964717021,0.0076538147147771,0.5324595079187999,0.038491612333572,9.8536778369889,0.59646827066612,0.00072216061159481,9.850105572556,-0.01450902946271,-0.0030307861611270004,-0.021969843097075,-0.014650559477937,-0.0029519711617823,-0.021886881145531997,0.024698178070457,0.015620499351812998,4,8,6,6,6
2011-09-30 12:42:43.581023833,48.98508291710301,8.3941079965714,116.31929779053002,0.002933,0.006378,-0.4546046732051,-2.3042925785376,4.8162074224499,5.338929111123901,-0.037763843137981,0.0082307425075606,0.54302558173098,0.018692870483537,9.8645711614406,0.6069273142953199,-0.017778172578948998,9.8608801233343,-0.013771175043303,-0.0019326682369580001,-0.022365866632514,-0.013914978386516999,-0.0018548511013872,-0.022284195977993998,0.024698178070457,0.015620499351812998,4,8,6,6,6
2011-09-30 12:42:43.591077163,48.985082707928,8.3941086600598,116.31941986084,0.002834,0.006474,-0.4549416732051,-2.3072036917569,4.8215013090824,5.344953928228599,-0.038766544514481,0.0087511311314265,0.53519174447134,0.017073939911006,9.8594754872245,0.59905308672949,-0.01810543391684,9.855828027102099,-0.013151498786808,-0.00020876800141428,-0.024062986637637,-0.013306381304137,-0.00012831184596606002,-0.023980015218972,0.024698178070457,0.015620499351812998,4,8,6,6,6
2011-09-30 12:42:43.601014318,48.985082499689,8.3941093220718,116.31951904296999,0.002707,0.00643,-0.4553126732051,-2.3098881379933998,4.8269611127201,5.3510270383743,-0.040151734308271,0.0092234614617125,0.54119298280064,0.040942848924355006,9.8551891641408,0.6049556031157,0.0070484522634816,9.851569703853698,-0.013050773968786998,-0.00085545280120214,-0.026011038641991002,-0.013218131558833002,-0.0007720184508054,-0.025930176116316,0.024698178070457,0.015620499351812998,4,8,6,6,6
2011-09-30 12:42:43.611000984,48.985082280332,8.3941099860174,116.31986236571998,0.002564,0.006474,-0.4556666732051,-2.3130699172944,4.8321869458121,5.3571079486704996,-0.041064376766358004,0.0096999422424556,0.53993403538054,-0.012463578414298,9.8531207895197,0.60368668862871,-0.045058658506642,9.8493698769059,-0.013344657873469,-0.00010463488102182,-0.027320382845693,-0.013520589976423001,-2.0356740010263e-05,-0.027235351203352003,0.024698178070457,0.015620499351812998,4,8,6,6,6
2011-09-30 12:42:43.621028413,48.985082069549996,8.394110650954,116.31998443603999,0.002445,0.006456,-0.4560146732051,-2.3167644297002004,4.8370189039403,5.3630603774408,-0.041404471365863,0.010059950906086999,0.5278089300734601,-0.077149041652153,9.8423476710917,0.59146831644558,-0.10844194899786999,9.8385171210355,-0.013090459192448,-0.00035893964886855,-0.028434825418839002,-0.013273620889783998,-0.00027455787217362996,-0.028351802668954,0.024698178070457,0.015620499351812998,4,8,6,6,6
2011-09-30 12:42:43.631007096,48.985081860662,8.3941113153625,116.32009124756,0.002398,0.006409999999999999,-0.4564176732051,-2.3207597652452,4.8416360683492,5.3689518803784,-0.041477082521825,0.010080958270173999,0.52279759056244,-0.11734168540433,9.810930520428,0.58616769304784,-0.14740545862260998,9.8070412216267,-0.011803390313581002,-0.0010070987015383,-0.030190601606012998,-0.011997668883536,-0.0009209338287944801,-0.03011723828658,0.024698178070457,0.015620499351812998,4,8,6,6,6
2011-09-30 12:42:43.641003100,48.985081640153,8.394111980727,116.32041168213001,0.00237,0.006352,-0.4567516732051,-2.3249058004584,4.8462056580968,5.374867171340701,-0.041420808982263996,0.010113814529648001,0.52449295197807,-0.13083543259368,9.8094709423638,0.58769394908659,-0.15987387583866,9.805548669647699,-0.010554881766544,-0.0017695338963075,-0.030577511365111,-0.010751244730527,-0.0016846414648633,-0.030513888801809,0.024698178070457,0.015620499351812998,4,8,6,6,6
2011-09-30 12:42:43.651046543,48.985081428205994,8.3941126477046,116.32049560546999,0.0022719999999999997,0.006375,-0.4571206732051,-2.3290899303897,4.8508248093823,5.380843675540099,-0.041404498609106,0.0099917423502009,0.53169400918136,-0.13347011770463002,9.7950903010092,0.59470133242176,-0.16146312904197,9.7911249781965,-0.010410149501561999,-0.0011546038118614,-0.031521384660344,-0.010612280335851,-0.0010698808620005,-0.031457214403983996,0.024698178070457,0.015620499351812998,4,8,6,6,6
2011-09-30 12:42:43.661064790,48.985081217081,8.3941133132318,116.3205871582,0.002206,0.006311,-0.4575406732051,-2.3335164408312004,4.855576087975,5.3870454881128005,-0.041315685848381,0.0097679809976707,0.55522990780416,-0.15238960004892999,9.7861367558578,0.6179994662985,-0.17940500618338,9.781995838520801,-0.009799627076328001,-0.0019549132400822,-0.033084176961292996,-0.010011135040855998,-0.0018690184292196,-0.033025637430828,0.024698178070457,0.015620499351812998,4,8,6,6,6
2011-09-30 12:42:43.670994641,48.985080995298006,8.3941139807437,116.32088470459,0.0021079999999999996,0.006248,-0.4579406732051,-2.3382689747064997,4.8603796747787005,5.393438373967401,-0.041015738621131004,0.0096227838480201,0.5724604216335301,-0.17727616004159,9.7929112424792,0.6350257695388499,-0.20334780393223997,9.7886307441161,-0.0098911830148788,-0.0026441762540699,-0.034025550417098996,-0.010107835116535,-0.0025587178591049,-0.033967978339948995,0.024698178070457,0.015620499351812998,4,8,6,6,6
2011-09-30 12:42:43.681028636,48.985080781518,8.3941146492391,116.32094573975,0.00202,0.00633,-0.4582536732051,-2.3432386285005,4.8648677235619004,5.399645071702301,-0.040360822348518,0.0092893662708171,0.5552763583885,-0.21207973603535998,9.7741445561073,0.61763423908838,-0.23716984949221998,9.7699153321832,-0.009697505562646999,-0.0010205498159594,-0.033618217854534,-0.0099113469014719,-0.0009384257600154801,-0.033558533781746,0.024698178070457,0.015620499351812998,4,8,6,6,6
2011-09-30 12:42:43.691082499,48.985080569355,8.394115316875,116.32102203369,0.001964,0.0062840000000000005,-0.4586306732051,-2.3482878342255,4.8693875650275995,5.4059160238816,-0.039683855936135,0.0087509613301945,0.56331990463023,-0.22099277563005001,9.7549528726912,0.6254142280098399,-0.24516106221729997,9.7506727455946,-0.0090528797282499,-0.0015514673435655,-0.034213985176353996,-0.0092700693475804,-0.0014705865699376,-0.034159384854104996,0.024698178070457,0.015620499351812998,4,8,6,6,6
2011-09-30 12:42:43.701048029,48.985080346218005,8.3941159859697,116.32128143311,0.0017920000000000002,0.006218,-0.4590226732051,-2.3535846590916,4.8738444302735004,5.412240789057099,-0.038799912403857,0.0082933171306654,0.5667219189356899,-0.24451385928554,9.7617399417875,0.62864033606414,-0.26769110424366,9.7574229459955,-0.010349947769012,-0.0023477472420307,-0.034870387399901004,-0.010570511688768,-0.0022686239458038,-0.03480919117817399,0.024698178070457,0.015620499351812998,4,8,6,6,6
2011-09-30 12:42:43.711025978,48.985080130873,8.394116656427599,116.32131958008002,0.0017239999999999998,0.006231,-0.4593266732051,-2.3589419602279,4.8782627657325,5.418559021789,-0.037809919514782006,0.0077843195610656,0.56628363109534,-0.25309178039271,9.757098950519401,0.62800697764489,-0.27530875498769,9.7527940296431,-0.0097994556036606,-0.0018005851557261,-0.034196829289916,-0.010015307830352,-0.0017254743796121,-0.034138137671272994,0.024698178070457,0.015620499351812998,4,8,6,6,6
2011-09-30 12:42:43.721034477,48.985079916561006,8.3941173254852,116.32138824463001,0.001693,0.006146,-0.4596856732051,-2.3647106661937003,4.882648350872599,5.4250313885943,-0.036452779227922005,0.0073666716269057,0.58263608643104,-0.29405801333381,9.7664441079415,0.64415063150133,-0.31543596406182,9.761998815060698,-0.0087645372631115,-0.0028084973823671,-0.034431304896428004,-0.0089809836270641,-0.0027355701434758,-0.034380798144668004,0.024698178070457,0.015620499351812998,4,8,6,6,6
2011-09-30 12:42:43.731023640,48.985079691999,8.3941179963656,116.32164764404,0.0016809999999999998,0.006069,-0.4600756732051,-2.3704090662647004,4.8870660982417,5.4315024011706,-0.035212755528098,0.0072666708828699,0.58221067346638,-0.28423931133373,9.797187491750302,0.64357348072468,-0.30492480833075003,9.7927938760104,-0.0077003566736448,-0.0035812227750121,-0.035037109161964,-0.007919364550841999,-0.0035095327290439,-0.034994550799618995,0.024698178070457,0.015620499351812998,4,8,6,6,6
2011-09-30 12:42:43.741049920,48.98507947513699,8.3941186691153,116.3217010498,0.001684,0.0060609999999999995,-0.4604546732051,-2.375942706325,4.8917361835054,5.438127409112299,-0.034258048995371,0.0070616702504394,0.59762907244643,-0.25921341463367,9.7873943679877,0.65863308175311,-0.27925433888955,9.7829784931139,-0.006483803172598001,-0.0031535393587603,-0.035457542787669,-0.0067043640920535,-0.0030830442849419,-0.035421813019752994,0.024698178070457,0.015620499351812998,4,8,6,6,6
2011-09-30 12:42:43.751027750,48.985079258962,8.394119339707402,116.32174682616998,0.001615,0.006014,-0.4608196732051,-2.3815313003762,4.896530755979599,5.444889518519701,-0.033320519885884,0.0069924197128735,0.61220471157946,-0.26045640243862,9.8027252127896,0.67297718780228,-0.27988689028717,9.7982513820394,-0.0065087326967083,-0.0033930084549462,-0.035597411369518994,-0.0067290255379072,-0.0033242712393528,-0.03556208697402401,0.024698178070457,0.015620499351812998,4,8,6,6,6
2011-09-30 12:42:43.761002057,48.985079033141005,8.3941200129223,116.32202148438,0.0015710000000000001,0.005907,-0.4612196732051,-2.3872716053197998,4.9014161425827005,5.451801518898599,-0.032326539971136006,0.0072635567559425,0.6277890048425401,-0.26841294207282995,9.8345664308711,0.6883170274507099,-0.28728883249351,9.830027240623302,-0.0062614227922021,-0.0045235571867043,-0.036184299664091,-0.0064836817918982,-0.0044558180026035,-0.036152432649833,0.024698178070457,0.015620499351812998,4,8,6,6,6
2011-09-30 12:42:43.771040971,48.985078814491,8.3941206882575,116.32211303711,0.0016059999999999998,0.005895,-0.4615256732051,-2.3930508645217996,4.9066187211953,5.4590163814529005,-0.031395436038231,0.0075090232425511,0.6585856541161601,-0.25813600076191,9.8326364662405,0.71871679485501,-0.2765465154632,9.8279658366796,-0.0047762093733718,-0.0040265236086986,-0.035330154714478,-0.0049921013200117,-0.0039616000303048,-0.035306492522885,0.024698178070457,0.015620499351812998,4,8,6,6,6
2011-09-30 12:42:43.781097042,48.985078597283,8.3941213612726,116.32215881348,0.001577,0.005889,-0.4619686732051,-2.3987882348435,4.911925913016,5.4663071413035,-0.030625399339094,0.0075976697561684,0.66674780599874,-0.25246060064762,9.8190559963044,0.72646273780946,-0.27041398985326,9.8143768688035,-0.004452777967366,-0.0035140450673939,-0.036675631507306,-0.004675412287250999,-0.0034483807513256,-0.036653225086058,0.024698178070457,0.015620499351812998,4,8,6,6,6
2011-09-30 12:42:43.791135395,48.985078370116995,8.3941220370359,116.32245635986,0.001599,0.005754,-0.4623086732051,-2.404639999617,4.9172920260636,5.473703011823,-0.029760450405957,0.0081530192927432,0.67671563509893,-0.25681651055048,9.863192596858699,0.73619984791585,-0.27450251136616,9.8584879484744,-0.0035388612722611,-0.0050329383072848,-0.03619628678121,-0.0037570197325146,-0.0049690908484418,-0.036181838742512,0.024698178070457,0.015620499351812998,4,8,6,6,6
2011-09-30 12:42:43.801030883,48.985078150182,8.3941227149031,116.32260131836,0.0016190000000000002,0.005826,-0.4627156732051,-2.4102289996745,4.922903222154099,5.481202024959299,-0.02928034171048,0.0088500663988317,0.68751328983409,-0.22391903396791,9.8782087073299,0.74677977893741,-0.2413717136372,9.873519042426599,-0.0026780320814219,-0.0032009975611921,-0.036859843764028,-0.0028989597852435,-0.0031368640699799,-0.036847630477532006,0.024698178070457,0.015620499351812998,4,8,6,6,6
2011-09-30 12:42:43.811176292,48.985077931231004,8.3941233902721,116.32263946533001,0.00158,0.005827000000000001,-0.4631506732051,-2.4156996497232996,4.9284227388309,5.4885670354277005,-0.028923599415582,0.0093375564390069,0.6748362963589699,-0.21872617887272,9.858032401230401,0.73372743727339,-0.23587017708818,9.853447636596801,-0.0028193272692087,-0.0027118479270132,-0.037848367199424,-0.003045083726315,-0.0026470368250012,-0.037834688860998,0.024698178070457,0.015620499351812998,4,8,6,6,6
2011-09-30 12:42:43.821041462,48.985077702887004,8.394124068515401,116.32297515869,0.00158,0.005633,-0.4635596732051,-2.4213997022647997,4.9340293280063,5.4961135030496004,-0.028429590783718997,0.010306922973156,0.69322085190513,-0.23342225204181,9.9056225410459,0.7518735647703199,-0.25040613632586,9.9009505546397,-0.0024654281788274,-0.0052450707379613,-0.038226612119511005,-0.0026914566474555,-0.0051804099455246,-0.03821913835058,0.024698178070457,0.015620499351812998,4,8,6,6,6
2011-09-30 12:42:43.831001964,48.985077481265,8.3941247491479,116.32314300536999,0.001594,0.005642,-0.4639736732051,-2.4270697469251,4.9400099288054005,5.5039820812995,-0.02815958409935,0.011205884527183,0.72560272411936,-0.21565891423553998,9.899169159888999,0.7838018680236,-0.23245334062366999,9.894375682701401,-0.0018466139520033,-0.0043278101272671,-0.038698120301584,-0.002073752140579,-0.0042629570566742,-0.038692857784501995,0.024698178070457,0.015620499351812998,4,8,6,6,6
2011-09-30 12:42:43.841046362,48.985077261314004,8.3941254268961,116.32322692871,0.0016640000000000001,0.005715,-0.4643886732051,-2.4324292848863,4.9459184394846,5.511648125468299,-0.028162162950317003,0.011820001848105,0.70593731550146,-0.19186007710021,9.8720987859056,0.7637363489224499,-0.20856111409363,9.8674746459787,-0.00050162185920276,-0.002589638608177,-0.039109402256346,-0.00073022060191158,-0.0025241715866099,-0.039109110521632996,0.024698178070457,0.015620499351812998,4,8,6,6,6
2011-09-30 12:42:43.850992217,48.985077030434,8.3941261092553,116.32277679443001,0.0016829999999999998,0.005594,-0.4648566732051,-2.4378248921534,4.9518856735619,5.5193834833949005,-0.028227096132694,0.012432001570888999,0.71181171817624,-0.18960106553518,9.8746339680198,0.7692367030613301,-0.20629338629225,9.870008296685599,-0.00019987858032235,-0.0040866928169505,-0.040186491917894,-0.0004330504882608,-0.0040193572733067,-0.040190565748974,0.024698178070457,0.015620499351812998,4,8,6,6,6
2011-09-30 12:42:43.861018839,48.985076807123,8.3941267921244,116.32298278808999,0.001698,0.0055520000000000005,-0.4653566732051,-2.4435511583304,4.9579028225276,5.5273123642712,-0.028104816673102998,0.013342201335256,0.7318799604498001,-0.21702090570489999,9.903728872816801,0.78907379101255,-0.23377376900823002,9.898972537083699,8.2103206726004e-05,-0.0041051888944079,-0.04164801813021,-0.00015768418266081999,-0.0040352356070503,-0.041653826026175005,0.024698178070457,0.015620499351812998,4,8,6,6,6
2011-09-30 12:42:43.871020457,48.985076585522,8.3941274727974,116.32311248779,0.001754,0.005536999999999999,-0.4658006732051,-2.4493634845808,4.9638573991485,5.5352249489868,-0.02790494444815,0.014055871134968,0.73111796638233,-0.22865776984917,9.884929541894302,0.78785201813972,-0.24547033140223,9.8801807674362,0.0009427877257171,-0.0037099105602467,-0.042056315410679,0.00070210166242065,-0.0036387761857927,-0.042066360388579006,0.024698178070457,0.015620499351812998,4,8,6,6,6
2011-09-30 12:42:43.880995257,48.985076353239,8.394128157825099,116.32271575928002,0.001823,0.005438,-0.4663496732051,-2.4550389618937,4.9701037892762,5.5433372526941005,-0.028070867278405,0.014782490464722,0.75030027142498,-0.20029910437179,9.888540110610199,0.8066049694039,-0.21729938637079,9.883767694241401,0.0017823695668595,-0.0047194239762097,-0.043916868099077,0.0015333336544492,-0.0046440650770065,-0.043933461396375995,0.024698178070457,0.015620499351812998,4,8,6,6,6
2011-09-30 12:42:43.891073688,48.985076128944996,8.3941288437106,116.32291412353999,0.001852,0.005455,-0.4668326732051,-2.4604031176096,4.9765232208848,5.5514647717278,-0.02863419413927,0.015505116895014001,0.75378023071123,-0.16564923871602,9.8885340940186,0.80972875536101,-0.18284651004218,9.8838285426197,0.0019785141318306,-0.0037595103797782,-0.044560837884215,0.0017273816867568,-0.0036820630172792,-0.04457688387490701,0.024698178070457,0.015620499351812998,4,8,6,6,6
2011-09-30 12:42:43.901211288,48.985075905403995,8.394129526660201,116.32307434081999,0.001823,0.005509,-0.4673716732051,-2.4657276499682004,4.982879737752,5.5595186119295,-0.029288110068678,0.015954349360762,0.7469281961045501,-0.16568685290862,9.860583979915802,0.80249993947514,-0.18295755730585,9.855929258969,0.0012977370120559998,-0.0023960838228115,-0.045954212201583,0.0010397896415365,-0.0023155296188439,-0.045964142388865994,0.024698178070457,0.015620499351812998,4,8,6,6,6
2011-09-30 12:42:43.911165002,48.98507567205999,8.394130214520299,116.32270050049,0.0018510000000000002,0.005384000000000001,-0.4679226732051,-2.471303502473,4.9894377770892,5.5678659522056995,-0.029891014930451,0.016426196956648,0.77476396668887,-0.17690882497233,9.864951382928501,0.82998443118582,-0.1943347355469,9.860150970931599,0.0014690764602476,-0.0039821712493898,-0.04726608037134599,0.0012056210713867,-0.0038985093968538,-0.047279959654734006,0.024698178070457,0.015620499351812998,4,8,6,6,6
2011-09-30 12:42:43.921196148,48.985075445869,8.3941309031131,116.32291412353999,0.001823,0.0053170000000000005,-0.4684326732051,-2.476987977102,4.9960321105259,5.5762953129263,-0.030450360051893995,0.017007267413151003,0.7844893716855401,-0.18571250122648,9.8746036754892,0.8393437065178199,-0.20323963207276002,9.869765753841302,0.00086771499121047,-0.0043913455619813,-0.047808168315644,0.00060319445497904,-0.0043063181865672,-0.047819654200044005,0.024698178070457,0.015620499351812998,4,8,6,6,6
2011-09-30 12:42:43.931145978,48.985075221654995,8.3941315892608,116.32305908203001,0.0017829999999999999,0.005469,-0.4689916732051,-2.4823897805367,5.002702293947,5.5846649574077,-0.031370292426997994,0.017141177301178003,0.78024596593271,-0.15725562604251,9.8304281241658,0.83472944341724,-0.174715884603,9.8256728403287,0.0001780577425289,-0.0014616437276841,-0.049026443068297,-9.263607490930601e-05,-0.0013744155978624,-0.049028958249714996,0.024698178070457,0.015620499351812998,4,8,6,6,6
2011-09-30 12:42:43.941110701,48.985074987023,8.3941322806968,116.32225036621,0.0016820000000000001,0.0054009999999999996,-0.4695246732051,-2.4879863134562,5.0091669498549,5.5929398029937,-0.032065985248199,0.017060000706001,0.7685990710428001,-0.18166728213613,9.8118089055409,0.82277156329079,-0.19895733234888002,9.807093675889199,-0.0014236509188504,-0.0023313971685315,-0.049841476608053,-0.0016978480767538,-0.0022435114662042,-0.049836808945802,0.024698178070457,0.015620499351812998,4,8,6,6,6
2011-09-30 12:42:43.951166844,48.985074759391004,8.3941329716503,116.32243347168001,0.001614,0.005342,-0.4700846732051,-2.4936283664378,5.0155319073767,5.6011467666179,-0.032736141794518996,0.017141000600101004,0.76369421038638,-0.19151218981571,9.8268975697098,0.8176816919409001,-0.20860847517849,9.8222169284018,-0.0021986032810229,-0.0028771875932518,-0.050754755116845,-0.0024764809193015,-0.0027889429327658,-0.050746821745503,0.024698178070457,0.015620499351812998,4,8,6,6,6
2011-09-30 12:42:43.961401119,48.985074533211005,8.3941336606787,116.32259368896001,0.0015869999999999999,0.005414,-0.4706626732051,-2.4992641114721,5.0217821212702,5.609248962502,-0.033427681005189,0.016999850510086,0.75301507882842,-0.19659536134335,9.8041579342533,0.80675988814899,-0.21343036552352,9.7995402597224,-0.0022228127888694,-0.001382109454264,-0.051796541849318,-0.0025058523378189996,-0.0012933673528653,-0.051786056444282996,0.024698178070457,0.015620499351812998,4,8,6,6,6
2011-09-30 12:42:43.971194246,48.985074294616005,8.3941343516956,116.3225479126,0.0015140000000000002,0.005414,-0.4712656732051,-2.5048494947513,5.027934803079701,5.6172416734842,-0.034200029170638,0.016684872933573,0.74138781700416,-0.19221605714185,9.784364244115302,0.79492396036645,-0.20872233769732002,9.7798297082826,-0.003105890870539,-0.0012137930361244,-0.053150060571919996,-0.003395848602308,-0.0011245499885144,-0.053134476764623996,0.023853720883752996,0.015620499351812998,4,8,6,6,6
2011-09-30 12:42:43.981063214,48.985074065091,8.3941350454134,116.32273101806999,0.001411,0.005338,-0.4718566732051,-2.5107970705386,5.0342895826177,5.625579425313599,-0.03480099507768,0.016687141993537,0.77668464445354,-0.21813364857057002,9.815959607498,0.8301908171982901,-0.23427937358932,9.8112231085708,-0.0041370072399582,-0.0021822240807057,-0.054044051486132005,-0.0044307877546154,-0.0020938557176114,-0.054024302485783,0.023853720883752996,0.015620499351812998,4,8,6,6,6
2011-09-30 12:42:43.991098101,48.985073837458,8.3941357366729,116.32288360596,0.0013570000000000001,0.00547,-0.4723906732051,-2.5164675099578,5.040786145225099,5.6339182467435,-0.035716804608056,0.016614070694507,0.7784119477855099,-0.18749860128498996,9.8090206663733,0.8319064018675301,-0.20321108745589003,9.8043218250369,-0.0042844561539644,0.00011910953140012,-0.053929443763212,-0.0045778594310613,0.00020506596319193,-0.05390565057482401,0.023853720883752996,0.015620499351812998,4,8,6,6,6
2011-09-30 12:42:44.001129953,48.985073597433995,8.3941364301331,116.32284545898001,0.001282,0.005543,-0.4729876732051,-2.5223973834641003,5.0467582234413,5.641908683237999,-0.036220852617132995,0.016311960090331003,0.7421701556176801,-0.23050381109224,9.784852566417301,0.7956603979374399,-0.24571465654738,9.7802976225362,-0.0048837877308698,0.0011617431016901,-0.054879027198730994,-0.0051832567795727,0.0012463931920605,-0.054850412789722004,0.023853720883752996,0.015620499351812998,4,8,6,6,6
2011-09-30 12:42:44.011039323,48.98507336579701,8.394137125612,116.32305908203001,0.001251,0.005344,-0.4736186732051,-2.5289527759445,5.0525844899251,5.650055134537901,-0.036181432490835,0.016550166076781,0.75786463227503,-0.2938332394284,9.8383946814547,0.8114584918095601,-0.30866548972818,9.8336987973369,-0.0045637195712393,-0.0019990183635634,-0.056095673118921,-0.0048687748423319,-0.0019152433793942,-0.056072740229186,0.023853720883752996,0.015620499351812998,4,8,6,6,6
2011-09-30 12:42:44.021085612,48.985073136438,8.394137820221,116.32322692871,0.001333,0.005488,-0.4741696732051,-2.5355448595528,5.058601816436299,5.658389749235799,-0.036197530268358,0.016887641165264,0.77763993743377,-0.29066325351414,9.847695479236501,0.83134237022436,-0.30525021432088,9.8428933719024,-0.0026071616355534,0.0004593343909711,-0.055938822151083,-0.0029117788729028,0.0005415484540479599,-0.05592330097325401,0.023853720883752996,0.015620499351812998,4,9,6,6,6
2011-09-30 12:42:44.031000298,48.985072894645995,8.394138516024,116.32294464111,0.001367,0.005665,-0.4747496732051,-2.5417631306199,5.0645115439709,5.6664590755902005,-0.036524022970872,0.016709494990474,0.74983894681871,-0.25790876548701996,9.796486157351,0.80356243276463,-0.27225693824769004,9.7918620238966,-0.0018080873902204,0.0029929342323254,-0.056333498828419995,-0.002116767979769,0.0030748235290692,-0.056318910394302,0.023853720883752996,0.015620499351812998,4,9,6,6,6
2011-09-30 12:42:44.041010786,48.985072662038,8.3941392143727,116.32311248779,0.001382,0.00557,-0.4753346732051,-2.5477836610269,5.0705548123753,5.674557773943701,-0.037116056160292996,0.016663070741903,0.7535081047959,-0.23642745066397,9.8095532337484,0.8074288309371701,-0.25067225070822,9.804927605558301,-0.0012698742816873,0.0011084940974766,-0.05664047400415701,-0.0015810441658688,0.0011902035407041,-0.056631400642415994,0.023853720883752996,0.015620499351812998,4,9,6,6,6
2011-09-30 12:42:44.051043133,48.985072429727,8.3941399101333,116.32336425781,0.00133,0.005625,-0.4759366732051,-2.5539511118729,5.076381590519,5.6825322534508,-0.037518670902312,0.016953610130618,0.74089188907652,-0.26076833306437003,9.843340248686099,0.7951892807316701,-0.27487830221726,9.838738977826301,-0.0018053931394342,0.0017702199828551,-0.057168402903534005,-0.0021206295484577,0.0018516741937357,-0.057155354852062995,0.023853720883752996,0.015620499351812998,4,9,6,6,6
2011-09-30 12:42:44.061016968,48.985072186439,8.3941406076877,116.3231048584,0.0013109999999999999,0.00577,-0.4764856732051,-2.5604234450920003,5.081544351941099,5.6900579133361,-0.037335895640549,0.016810568611025,0.6943181057150399,-0.31370808310472,9.8011542113832,0.7487450621029201,-0.32758186420261,9.7967248311982,-0.0019305841685191,0.0036271869854269,-0.056892642468004004,-0.0022464002768444,0.0037073018820661,-0.056876338877577995,0.023853720883752996,0.015620499351812998,4,9,6,6,6
2011-09-30 12:42:44.071045379,48.985071951553,8.3941413068005,116.32324981689,0.0013189999999999999,0.005786,-0.4771146732051,-2.5670649283282003,5.08641269915,5.6974010330498,-0.036929151828683,0.016568983319371,0.67646538985778,-0.34337687063901,9.7910660796757,0.7311742700912601,-0.35709536938722,9.786674897659001,-0.0014699965432412,0.0033246089376128,-0.057790746097803006,-0.0017930144546363,0.0034051471940728,-0.057777392827925,0.023853720883752996,0.015620499351812998,4,9,6,6,6
2011-09-30 12:42:44.081024387,48.985071718386,8.394142005171599,116.32350158691001,0.001299,0.005718,-0.4777066732051,-2.5738501890789,5.0910157942775,5.7045765112415,-0.036294444958528,0.016828635821466,0.66109558137912,-0.36997534004315996,9.8409461677244,0.71627909898164,-0.38360858098716,9.8365937833503,-0.0014984970617551,0.0018044175969709,-0.05798713418313299,-0.0018237555542033,0.0018843916085632,-0.057975534634133,0.023853720883752996,0.015620499351812998,4,9,6,6,6
2011-09-30 12:42:44.091018727,48.985071473521,8.394142703900599,116.32328796386999,0.001419,0.005873,-0.4782646732051,-2.5804726607171,5.0952584251358,5.7113592736247005,-0.03562863400725701,0.017124340448246,0.6193362441722501,-0.36756403903668,9.844719242565699,0.67493228381022,-0.38125223907440997,9.8405802393705,0.00043627749750821003,0.0038167549574253,-0.05772806405566299,0.00011023540197706001,0.0038967055057805,-0.057724853656044,0.023853720883752996,0.015620499351812998,4,9,6,6,6
2011-09-30 12:42:44.101016002,48.9850712372,8.394143404419,116.3235168457,0.001497,0.005842,-0.4789156732051,-2.5868667616095,5.0994796613655,5.7180196627732,-0.035228629877547005,0.017645689381008998,0.60718080754641,-0.34989943318118,9.8657613561809,0.6631855316053901,-0.36377649214051,9.861688165784301,0.0015948358728820001,0.0027717417138115,-0.058827854447313,0.0012606633827777,0.0028543094268951,-0.058832806028507996,0.023853720883752996,0.015620499351812998,4,9,6,6,6
2011-09-30 12:42:44.111014058,48.985071001501,8.3941441038951,116.32370758056999,0.001513,0.005876,-0.4795006732051,-2.5934267473681,5.1038327121605995,5.7248756840758,-0.034748487238105,0.018553835973858002,0.6271036864144499,-0.359184518204,9.904782152753699,0.68363014313031,-0.37327801974669,9.9005462923659,0.0016376104919497,0.0028599804567398,-0.058777176280216,0.0013020107574146,0.0029434367364259,-0.058782118103784003,0.023853720883752996,0.015620499351812998,4,9,6,6,6
2011-09-30 12:42:44.120986910,48.985070755200006,8.3941448044971,116.32355499268,0.001498,0.00607,-0.4800996732051,-2.5999777352629,5.1082078053365,5.731749280789,-0.034305221374565,0.019160760577779,0.62714813345228,-0.35450684047340003,9.8761498298407,0.68403788227764,-0.36866897409585997,9.8718759262893,0.0010874689181572,0.0052884833882288,-0.059010099838184005,0.00074731067004838,0.0053729741657719,-0.059007994763208005,0.023853720883752996,0.015620499351812998,4,9,6,6,6
2011-09-30 12:42:44.131034711,48.985070516830994,8.394145506776201,116.32373046875,0.001531,0.006086,-0.4807156732051,-2.6065810749735,5.112481634536099,5.7385594330361,-0.033800599330619,0.019286646491112,0.62130591343444,-0.36554581440239003,9.8265523553646,0.67837399056143,-0.37977567594139,9.8222560666505,0.0014733485804336,0.0047352108799945,-0.05937758486245599,0.0011280997165991,0.0048211420431169,-0.059378587772194,0.023853720883752996,0.015620499351812998,4,9,6,6,6
2011-09-30 12:42:44.141067048,48.985070279796,8.3941462076941,116.32399749756,0.001516,0.006034,-0.4813036732051,-2.6133789137274,5.1167143893557,5.745425597067701,-0.033108600788582,0.019513649517445,0.62679502641927,-0.3850839422420301,9.837899502059901,0.68426283170049,-0.39943099850703,9.8335107056253,0.0010843462933686,0.0032389292479953,-0.059293947133088,0.00073764302978044,0.0033253473027404,-0.059294806697294006,0.023853720883752996,0.015620499351812998,4,9,6,6,6
2011-09-30 12:42:44.151148265,48.985070031795,8.394146910034902,116.32382202148001,0.001517,0.006128,-0.4818066732051,-2.6204020766682996,5.1210472309523,5.752487760817901,-0.03219414623611,0.019391602089828,0.64428577245638,-0.39654635090573,9.8029795767509,0.70195961219802,-0.41092690874433,9.798432048692801,0.00085269434936331,0.004124089860796,-0.057998855063125,0.0005114442888682599,0.0042090713083746,-0.057996931672775996,0.023853720883752996,0.015620499351812998,4,9,6,6,6
2011-09-30 12:42:44.161029617,48.985069791704,8.3941476144238,116.3239364624,0.001489,0.0061979999999999995,-0.4824036732051,-2.6271067651681,5.1254951463094995,5.7595067000204,-0.031639345589456,0.018747861776354,0.6415879065879301,-0.36529439826987,9.7498226402383,0.69939290282803,-0.37962818516821006,9.7453041465835,0.00034679019695881,0.0045494763816766,-0.058239026803655995,1.3348370028151001e-06,0.0046350211098625,-0.058233312981542,0.023853720883752996,0.015620499351812998,4,9,6,6,6
2011-09-30 12:42:44.171036031,48.985069553072,8.3941483169371,116.32416534424,0.0014789999999999998,0.006062,-0.4829566732051,-2.6334207503929,5.130070874363,5.7664599798981,-0.031473352645913,0.017855682509901,0.63632472059974,-0.32524523852939,9.725159244202501,0.6941731049479302,-0.3395554614808,9.7207172394163,0.00020327166741498999,0.0018210549244251,-0.057799672783108,-0.00014067507100307,0.0019060407001614,-0.057797125829344,0.023853720883752996,0.015620499351812998,4,9,6,6,6
2011-09-30 12:42:44.181021987,48.985069300962,8.394149019509099,116.32356262206999,0.001401,0.005993,-0.4835216732051,-2.6400926378339,5.1346652432086,5.7735984167073,-0.030996660227441002,0.016872330133416002,0.65300101250978,-0.35049845274998004,9.7184153575721,0.71087145917771,-0.36469636296031,9.7138364637485,-0.0011352190826973,0.00046939668576135,-0.057589721865641,-0.0014782598033117,0.0005534881097001,-0.057581068881807,0.023853720883752996,0.015620499351812998,4,9,6,6,6
2011-09-30 12:42:44.191180161,48.985069058549996,8.394149725507901,116.32370758056999,0.001354,0.005894,-0.4841276732051,-2.6471137421588,5.1390954567273,5.780756362706501,-0.030169462351624998,0.016261480613404,0.6547108606333101,-0.39156868483748,9.7550730539363,0.71270631433108,-0.40566026673757,9.7504394811809,-0.0016129362202927,-0.0010890128171029,-0.058030763585794995,-0.0019580356663146,-0.0010052401035244,-0.058021437946398,0.023853720883752996,0.015620499351812998,4,9,6,6,6
2011-09-30 12:42:44.201003055,48.985068818363,8.3941504306328,116.32386016846,0.001325,0.00573,-0.4846886732051,-2.654101680835,5.1437911382182,5.788136469306201,-0.029487008603979,0.016042258521393,0.67771923153831,-0.37705338211186,9.7946170958459,0.73562405950965,-0.39102240395243,9.789899420518699,-0.0017624957872488,-0.0033916608945374,-0.05773664904792599,-0.0021040344707076,-0.0033093080140712,-0.057729600914223,0.023853720883752996,0.015620499351812998,4,9,6,6,6
2011-09-30 12:42:44.211001500,48.985068564721004,8.3941511358477,116.32331848145,0.001355,0.005681,-0.4852636732051,-2.6607914287098,5.1491774674855,5.7959909868807005,-0.029397028102885,0.015750919743184,0.72402134680757,-0.31424037479508,9.790354531469001,0.7815603260509899,-0.32809902864432,9.785487442449,-0.0011681214191615,-0.0036689117603568,-0.057692151690737,-0.0015073878634384,-0.0035872364139753,-0.057688953565038,0.023853720883752996,0.015620499351812998,4,9,6,6,6
2011-09-30 12:42:44.221007661,48.985068320771,8.3941518460946,116.323387146,0.001353,0.005673,-0.4858006732051,-2.6675577144032996,5.1551808473627005,5.804429272986599,-0.029501306879569998,0.014978281781706002,0.78374814478643,-0.29339931857581997,9.7406813517486,0.84070262234395,-0.30709889433403004,9.735529688080002,-0.00098090320628724,-0.0032310749963033,-0.057096328937127,-0.0013149934874789999,-0.0031507483782336,-0.05709369377584401,0.023853720883752996,0.015620499351812998,4,9,6,6,6
2011-09-30 12:42:44.230994968,48.985068077544,8.3941525516309,116.32360076904,0.001377,0.0054859999999999996,-0.4864206732051,-2.6748990572427997,5.1611087202583,5.813071427463501,-0.029114281586927002,0.01456153951445,0.8063309230684699,-0.34963442078945006,9.776894148986301,0.8629535839124,-0.36334076724864,9.771584416794301,-0.00043176772534415,-0.0055679137468578,-0.057818379596558,-0.0007667172629564299,-0.0054868459400761,-0.05782208166833401,0.023853720883752996,0.015620499351812998,4,9,6,6,6
2011-09-30 12:42:44.241013855,48.985067821884,8.394153259458701,116.32308197021001,0.001483,0.005427,-0.4870286732051,-2.6825791986564,5.1666574122195,5.8215392650291005,-0.028286041390586002,0.014462308587283,0.7873662846081999,-0.39185425767103,9.809745026638401,0.8436303961026801,-0.40572813520346,9.804514169419,0.0010999974334575,-0.0056567266848291,-0.05825212265707401,0.00076584060815995,-0.0055743130984436,-0.058264456942071004,0.023853720883752996,0.015620499351812998,4,9,6,6,6
2011-09-30 12:42:44.251016223,48.985067575608,8.3941539708641,116.32321166991998,0.0017100000000000001,0.005377000000000001,-0.4876316732051,-2.6900673188579,5.1720488003866,5.829780751818,-0.027581088854433,0.014272962299190001,0.76647634191697,-0.38367111902038,9.8001532726426,0.82215939176302,-0.39796363743227003,9.795074535181199,0.0043849978184389,-0.0055672176821048,-0.058559304258513,0.0040522730053789,-0.0054816980815192,-0.05858949285314,0.023853720883752996,0.015620499351812998,4,9,6,6,6
2011-09-30 12:42:44.261053574,48.985067331103004,8.3941546812317,116.32334899902,0.001866,0.005208,-0.4882116732051,-2.6974372210292,5.1775314803286,5.838050063557099,-0.027027686121067995,0.014337017954312,0.76965989062942,-0.37032545116732,9.824595281746198,0.8247715760255,-0.38526268492918,9.819557651949001,0.006115248145673,-0.007267135029789001,-0.058461908619736,0.0057871360254054,-0.0071782299563199,-0.05850460289040701,0.023853720883752996,0.015620499351812998,4,9,6,6,6
2011-09-30 12:42:44.270981956,48.985067079386,8.3941553949475,116.32337188721,0.002058,0.005038,-0.4888456732051,-2.7048716378749003,5.1833917582793,5.8466854199299005,-0.026647512056101,0.014571465261165002,0.8067159070350101,-0.35665663349222,9.840030989484301,0.8610606341356299,-0.37241781058801005,9.834872447848001,0.0080794609238221,-0.0087585647753207,-0.059289622326775995,0.0077521529088893,-0.0086632393840196,-0.059345599932532,0.023853720883752996,0.015620499351812998,4,9,6,6,6
2011-09-30 12:42:44.281011874,48.985066830759,8.3941561094449,116.32353210449,0.0022140000000000003,0.004988,-0.4894816732051,-2.7125408921936,5.189362994537401,5.8555314357101,-0.026160793670538997,0.014740745471989999,0.82909352097976,-0.37248813846839,9.8330813410617,0.88261158765724,-0.38913745419195006,9.8278060091016,0.0092645417852488,-0.0082112800590226,-0.05993767897775901,0.0089386990010148,-0.0081091267340624,-0.059998771055932994,0.023853720883752996,0.015620499351812998,4,9,6,6,6
2011-09-30 12:42:44.291012199,48.98506658406,8.3941568208023,116.32368469238001,0.002412,0.004915,-0.4900266732051,-2.7205297583646,5.1953085453567995,5.864507977708,-0.025342324258319,0.014944633651192,0.84347949283279,-0.40073491769813,9.837314139902402,0.8962373693740501,-0.41845440624952,9.831923090117401,0.010870360517461,-0.0080940880501692,-0.059102527131095,0.010553260752628999,-0.0079875834350903,-0.059171744129756,0.023853720883752996,0.015620499351812998,4,9,6,6,6
2011-09-30 12:42:44.300981656,48.985066329778995,8.3941575370533,116.32373046875,0.002595,0.004807,-0.4906716732051,-2.7289702946099,5.2013522635533,5.873786557474,-0.024230116033192,0.015267938603513002,0.87228256890787,-0.43386468004341,9.847767018917,0.9242671971065,-0.45278222679396,9.8421738547484,0.011993806439841999,-0.0085374748426438,-0.060012648061431,0.011677228655978,-0.0084215729449775,-0.060088876239215994,0.023853720883752996,0.015620499351812998,4,9,6,6,6
2011-09-30 12:42:44.311145426,48.985066078394006,8.3941582546154,116.32386016846,0.002797,0.0048259999999999996,-0.4913086732051,-2.7375547504184,5.2077344240203,5.883434403656301,-0.023195149109526997,0.015182747812986,0.9116601835716899,-0.4309149780369,9.8071069660795,0.962776815765,-0.45101254899321996,9.801335175408301,0.013263735473866002,-0.0069898536162472,-0.060544750852216,0.012948601497333002,-0.0068646714843983,-0.060623460633202994,0.023853720883752996,0.015620499351812998,4,9,6,6,6
2011-09-30 12:42:44.320999540,48.985065829422,8.3941589696153,116.32398986816001,0.0029739999999999996,0.004737,-0.4920046732051,-2.7461715378556,5.2143442604172,5.8933010519575,-0.022331719654279,0.014765335641038001,0.9340011560359399,-0.42123773133135994,9.7738659211676,0.98425865564896,-0.44259650883928003,9.7680203533792,0.013986175152786,-0.0072913755738102,-0.061903038224384005,0.013668807950448999,-0.0071539162773557,-0.061986639782314,0.023853720883752996,0.015620499351812998,4,9,6,6,6
2011-09-30 12:42:44.330990550,48.98506557270701,8.3941596889828,116.32400512695,0.0031190000000000002,0.004621,-0.4926006732051,-2.7551008071772998,5.2211326213547,5.903475914338,-0.02126880383397,0.014455535294882001,0.9650809826305501,-0.43771707163165996,9.7844460329924,1.0146204698335,-0.46047734008923,9.778414859811999,0.014069248879867999,-0.0079736692377386,-0.061631082490726,0.013757786841931002,-0.0078287071362338,-0.06171762137873901,0.023853720883752996,0.015620499351812998,4,9,6,6,6
2011-09-30 12:42:44.341009900,48.985065318475996,8.3941604093184,116.32415771484,0.003258,0.004566,-0.4931696732051,-2.7643106861007,5.2278777281515,5.913748857947001,-0.019908736999441002,0.014387205000650001,0.97586883523597,-0.46429451088691,9.807779128043599,1.0247822520103,-0.48849791896544004,9.8016184385518,0.014067861547888,-0.0076371188520778,-0.06091842011711701,0.013764127275330001,-0.0074860992973698,-0.061004273829173,0.023853720883752996,0.015620499351812998,4,9,6,6,6
2011-09-30 12:42:44.351031676,48.985065067043,8.3941611272458,116.32424163818001,0.0034729999999999995,0.004574,-0.4937856732051,-2.7733390831856,5.2345110689287,5.923840808313299,-0.018674401688758998,0.014269124250553001,0.95917850995057,-0.45268533425387003,9.803522258837,1.0074622181273,-0.47835244930819,9.7974667281676,0.015221682315704999,-0.0063955510242662,-0.06100865709955,0.014921267094974,-0.0062351362021541,-0.06109607665119599,0.023853720883752996,0.015620499351812998,4,9,6,6,6
2011-09-30 12:42:44.360983935,48.985064808132,8.394161849391,116.32424926758002,0.00359,0.004573,-0.4943926732051,-2.7820182207078,5.241379408589401,5.933977323186599,-0.017868762109851,0.01389875561297,0.9629917334579899,-0.40675753411578996,9.7770289200115,1.0106344868623,-0.43375851481862,9.7711030413032,0.014700929968349,-0.0054932183706262,-0.06105535853461701,0.014403495629658,-0.0053238446554498,-0.061137774218022994,0.023853720883752996,0.015620499351812998,4,9,6,6,6
2011-09-30 12:42:44.371002955,48.985064551986,8.3941625727369,116.32432556152,0.0037090000000000005,0.004547,-0.4949676732051,-2.7907004876016,5.248282497301,5.9441491270478,-0.017058227082288997,0.013253942271023998,0.9684229734392901,-0.40464890399842,9.7505345820098,1.0154646562365999,-0.43294050272149,9.7445728153562,0.014316790473097,-0.0050847356150323,-0.060501054754425,0.014024823469076,-0.0049088529363528,-0.060580781088665,0.023853720883752996,0.015620499351812998,4,9,6,6,6
2011-09-30 12:42:44.381050423,48.985064297178,8.3941632933278,116.32447052001999,0.0037689999999999998,0.004516,-0.4955776732051,-2.7997454144614,5.255155122705901,5.9544697188344005,-0.015931662498518,0.012600850930371001,0.98347952742339,-0.43744656839866,9.7495243947083,1.0300621124535,-0.46700240753688,9.7433552274286,0.013106771902131999,-0.0048155252727775,-0.060584896541260994,0.012817220379576999,-0.00463150130146,-0.060658599191057996,0.023853720883752996,0.015620499351812998,4,9,6,6,6
2011-09-30 12:42:44.391061623,48.985064035648,8.3941640196413,116.32440185546999,0.003965,0.00442,-0.4960766732051,-2.8087086022922003,5.2621068543,5.964824464884701,-0.014831181075663,0.011970723290815,0.98597259830989,-0.42296458313886004,9.7512607355021,1.0320369714179,-0.45389204346809,9.7451253200706,0.014064256116812002,-0.0055811964818608,-0.059313662060072006,0.013783534141928998,-0.0053937720683713,-0.05939499319242599,0.023853720883752996,0.015620499351812998,4,9,6,6,6
2011-09-30 12:42:44.401150248,48.985063777613,8.3941647465731,116.32447052001999,0.004091,0.004397,-0.4967236732051,-2.8170923119483,5.269470826155,5.9752686959859,-0.014501180618133002,0.011315114797193,0.9953217085634001,-0.35131489566803004,9.7494816251767,1.0408986000605,-0.38357987174742997,9.7435823369863,0.013891117699290002,-0.0051175170095817,-0.060115612751061,0.013609832573666,-0.0049185246342981,-0.06019461202621,0.023853720883752996,0.015620499351812998,4,9,6,6,6
2011-09-30 12:42:44.411172457,48.985063520745,8.3941654702899,116.32453155518,0.004188,0.004337,-0.4972956732051,-2.8250734651561005,5.277095202231701,5.985752604350799,-0.014638171015091999,0.010532847577614,1.0017234522789,-0.30199266131783004,9.735759381400198,1.0467452215314001,-0.33548499925207,9.730029254153802,0.013296950044397,-0.0052753894581445,-0.059655770838402,0.013020713433452,-0.0050703991175986,-0.059733100582774,0.023853720883752996,0.015620499351812998,4,9,6,6,6
2011-09-30 12:42:44.421173262,48.985063257652996,8.3941662005494,116.32443237305,0.004155,0.004273,-0.4978646732051,-2.8331474453827,5.285180921897,5.9966886641077,-0.014903636029532,0.0097029204409718,1.0447549344371,-0.28538876212015,9.731220474190199,1.0892418318493,-0.31990593713915993,9.7253788569225,0.010796907537737,-0.0055085810394228,-0.059569405212642,0.010524225960185998,-0.0052975089024228,-0.059637074847316,0.023853720883752996,0.015620499351812998,4,9,6,6,6
2011-09-30 12:42:44.431184373,48.985062996959,8.3941669316574,116.3244934082,0.004144,0.004219,-0.4984366732051,-2.8415253285753,5.293583783612401,6.008050855142,-0.015049863511292,0.009057482374826,1.0893566942715,-0.29742044780213,9.749952403061698,1.1334051674074,-0.33288610991761,9.7438845767026,0.0090528714070768,-0.0055102938835094,-0.059189994430745005,0.0087849813509572,-0.0052954194950364,-0.05925026993559299,0.023853720883752996,0.015620499351812998,4,9,6,6,6
2011-09-30 12:42:44.441057411,48.98506273876799,8.3941676591503,116.32452392578001,0.004203,0.004259000000000001,-0.4990166732051,-2.849681529289,5.302211216070599,6.0195064044751,-0.015504338080102001,0.0081938600186021,1.0997431901308,-0.26500238063181,9.7280595426024,1.1433180404658998,-0.30120290968985997,9.722084676179499,0.0086054406960153,-0.004121249800983,-0.059017495266134,0.0083406575451213,-0.0039020203288458,-0.059070087238789,0.023853720883752996,0.015620499351812998,4,9,6,6,6
2011-09-30 12:42:44.451031803,48.985062473567,8.3941683933052,116.32440948486,0.004194,0.0041990000000000005,-0.4995956732051,-2.8577242998956,5.31090953366,6.0309718313457,-0.016098672691324,0.0072347810158118,1.0990317116112,-0.25004702353704,9.7181356112121,1.1421539260615,-0.28689553864002,9.7122377793655,0.007169124591613001,-0.0044525623308355,-0.05914837097621401,0.0069063222009811,-0.0042285322403049,-0.05919628715242299,0.023853720883752996,0.015620499351812998,4,9,6,6,6
2011-09-30 12:42:44.461183075,48.98506221179,8.3941691271186,116.32441711426,0.004267,0.004116,-0.5002246732051,-2.8651606549113,5.319128103611,6.041727116978401,-0.017048212506691002,0.00638956386344,1.0295469548695,-0.21913997000648,9.7298302695302,1.0722479533882,-0.25673112253846997,9.7243705848776,0.007229255902871,-0.0050716779812102,-0.059696115329782,0.0069670693913725,-0.0048410456698604,-0.059746843800561,0.023853720883752996,0.015620499351812998,4,9,6,6,6
2011-09-30 12:42:44.471074239,48.985061951088,8.3941698595422,116.32442474365,0.004234,0.004118999999999999,-0.5008266732051,-2.8717515566746004,5.3274488880693,6.0521676025114,-0.018810553326039,0.005251129283924,1.0007399116391,-0.14002397450551002,9.6993307291007,1.0429213798191,-0.17802713074152998,9.6943434179101,0.0056828675174404,-0.0042929262840287,-0.059761198030313996,0.005422862333312001,-0.0040587005318213,-0.059802180689314,0.023853720883752996,0.015620499351812998,4,9,6,6,6
2011-09-30 12:42:44.481043488,48.985061685097996,8.3941705969163,116.32421875,0.0040880000000000005,0.004011,-0.5014676732051,-2.8777588231734,5.3359615548589,6.062496451103799,-0.021233237685416,0.0032484598913354,0.9874289248932,-0.077380378329684,9.6124011197356,1.0287696222959999,-0.11527565485226,9.6077609898784,0.0026374373898243,-0.0053349873414244,-0.060707518325767,0.0023766724020188,-0.0050953673529111,-0.06074028724922,0.023853720883752996,0.014212670403552,4,9,6,6,6
2011-09-30 12:42:44.491193954,48.985061422318,8.394171334451901,116.32411956786999,0.0038179999999999998,0.0037719999999999997,-0.5021126732051,-2.8836599996973997,5.344262321630099,6.0725885599225,-0.023700417848549,0.0014111909076351,0.96612458615922,-0.078613321580231,9.6302209517753,1.0067689516867,-0.11639725773955001,9.625728469539599,-0.0017691782186493,-0.0081512392402107,-0.061240390576902004,-0.0020272099636399,-0.0079107342783324,-0.061266783545388004,0.023853720883752996,0.014212670403552,4,9,6,6,6
2011-09-30 12:42:44.501102259,48.985061160043,8.3941720696197,116.32415008545,0.003565,0.003471,-0.5026896732051,-2.8898159997428,5.3527879733856,6.0830008182017,-0.026037304547206,-7.5487728510166e-05,0.99993089823534,-0.09040132334319699,9.665137809009,1.0396123685359,-0.12779174731511,9.6605964705187,-0.0052793014858519,-0.011464553354179,-0.060691331990367005,-0.0055286406308573,-0.011229304472312001,-0.060716725074781,0.023853720883752996,0.014212670403552,4,9,6,6,6
